{
    "stations": [
        {
            "network": "BI",
            "station": "ABGH",
            "channel": "BH",
            "latitude": 36.735,
            "longitude": 54.7993,
            "elevation": 1263.0,
            "startTime": "2020-08-23",
            "endTime": "2100-01-01",
            "instrumentCode": "ABGH/23Aug2020"
        },
        {
            "network": "BI",
            "station": "AHRM",
            "channel": "BH",
            "latitude": 28.8653,
            "longitude": 51.2971,
            "elevation": 80.0,
            "startTime": "2010-06-04",
            "endTime": "2017-11-09",
            "instrumentCode": "AHRM/04Jun2010"
        },
        {
            "network": "BI",
            "station": "AHRM",
            "channel": "BH",
            "latitude": 28.8653,
            "longitude": 51.2971,
            "elevation": 80.0,
            "startTime": "2017-11-09",
            "endTime": "2019-05-13",
            "instrumentCode": "AHRM/09Nov2017"
        },
        {
            "network": "BI",
            "station": "AHRM",
            "channel": "HH",
            "latitude": 28.8653,
            "longitude": 51.2971,
            "elevation": 80.0,
            "startTime": "2019-05-13",
            "endTime": "2100-01-01",
            "instrumentCode": "AHRM/13May2019"
        },
        {
            "network": "BI",
            "station": "ASAO",
            "channel": "BH",
            "latitude": 34.5479,
            "longitude": 50.0255,
            "elevation": 2217.0,
            "startTime": "2004-05-10",
            "endTime": "2004-11-10",
            "instrumentCode": "ASAO/10May2004"
        },
        {
            "network": "BI",
            "station": "ASAO",
            "channel": "BH",
            "latitude": 34.5479,
            "longitude": 50.0255,
            "elevation": 2217.0,
            "startTime": "2004-11-10",
            "endTime": "2005-01-04",
            "instrumentCode": "ASAO/10Nov2004"
        },
        {
            "network": "BI",
            "station": "ASAO",
            "channel": "BH",
            "latitude": 34.5479,
            "longitude": 50.0255,
            "elevation": 2217.0,
            "startTime": "2005-01-04",
            "endTime": "2005-08-01",
            "instrumentCode": "ASAO/04Jan2005"
        },
        {
            "network": "BI",
            "station": "ASAO",
            "channel": "BH",
            "latitude": 34.5479,
            "longitude": 50.0255,
            "elevation": 2217.0,
            "startTime": "2005-08-01",
            "endTime": "2100-01-01",
            "instrumentCode": "ASAO/01Aug2005"
        },
        {
            "network": "BI",
            "station": "BJRD",
            "channel": "BH",
            "latitude": 37.7,
            "longitude": 57.4107,
            "elevation": 1337.0,
            "startTime": "2008-02-06",
            "endTime": "2016-05-01",
            "instrumentCode": "BJRD/06Feb2008"
        },
        {
            "network": "BI",
            "station": "BJRD",
            "channel": "BH",
            "latitude": 37.7,
            "longitude": 57.4107,
            "elevation": 1337.0,
            "startTime": "2016-05-01",
            "endTime": "2016-09-13",
            "instrumentCode": "BJRD/01May2016"
        },
        {
            "network": "BI",
            "station": "BJRD",
            "channel": "BH",
            "latitude": 37.7,
            "longitude": 57.4107,
            "elevation": 1337.0,
            "startTime": "2016-09-13",
            "endTime": "2018-04-23",
            "instrumentCode": "BJRD/13Sep2016"
        },
        {
            "network": "BI",
            "station": "BJRD",
            "channel": "BH",
            "latitude": 37.7,
            "longitude": 57.4107,
            "elevation": 1337.0,
            "startTime": "2018-04-23",
            "endTime": "2100-01-01",
            "instrumentCode": "BJRD/23Apr2018"
        },
        {
            "network": "BI",
            "station": "BNDS",
            "channel": "BH",
            "latitude": 27.3994,
            "longitude": 56.1714,
            "elevation": 1500.0,
            "startTime": "2004-05-11",
            "endTime": "2007-04-13",
            "instrumentCode": "BNDS/11May2004"
        },
        {
            "network": "BI",
            "station": "BNDS",
            "channel": "BH",
            "latitude": 27.3994,
            "longitude": 56.1714,
            "elevation": 1500.0,
            "startTime": "2007-04-13",
            "endTime": "2010-12-21",
            "instrumentCode": "BNDS/13Apr2007"
        },
        {
            "network": "BI",
            "station": "BNDS",
            "channel": "BH",
            "latitude": 27.3994,
            "longitude": 56.1714,
            "elevation": 1500.0,
            "startTime": "2010-12-21",
            "endTime": "2011-12-01",
            "instrumentCode": "BNDS/21Dec2010"
        },
        {
            "network": "BI",
            "station": "BNDS",
            "channel": "BH",
            "latitude": 27.3994,
            "longitude": 56.1714,
            "elevation": 1500.0,
            "startTime": "2011-12-01",
            "endTime": "2012-09-28",
            "instrumentCode": "BNDS/01Dec2011"
        },
        {
            "network": "BI",
            "station": "BNDS",
            "channel": "BH",
            "latitude": 27.3994,
            "longitude": 56.1714,
            "elevation": 1500.0,
            "startTime": "2012-09-28",
            "endTime": "2013-03-09",
            "instrumentCode": "BNDS/28Sep2012"
        },
        {
            "network": "BI",
            "station": "BNDS",
            "channel": "BH",
            "latitude": 27.3994,
            "longitude": 56.1714,
            "elevation": 1500.0,
            "startTime": "2013-03-09",
            "endTime": "2017-02-04",
            "instrumentCode": "BNDS/09Mar2013"
        },
        {
            "network": "BI",
            "station": "BNDS",
            "channel": "BH",
            "latitude": 27.3994,
            "longitude": 56.1714,
            "elevation": 1500.0,
            "startTime": "2017-02-04",
            "endTime": "2019-10-02",
            "instrumentCode": "BNDS/04Feb2017"
        },
        {
            "network": "BI",
            "station": "BNDS",
            "channel": "BH",
            "latitude": 27.3994,
            "longitude": 56.1714,
            "elevation": 1500.0,
            "startTime": "2019-10-02",
            "endTime": "2100-01-01",
            "instrumentCode": "BNDS/02Oct2019"
        },
        {
            "network": "BI",
            "station": "BSRN",
            "channel": "BH",
            "latitude": 31.9651,
            "longitude": 59.1259,
            "elevation": 1416.0,
            "startTime": "2012-10-09",
            "endTime": "2100-01-01",
            "instrumentCode": "BSRN/09Oct2012"
        },
        {
            "network": "BI",
            "station": "CHBR",
            "channel": "BH",
            "latitude": 25.5955,
            "longitude": 60.4821,
            "elevation": 125.0,
            "startTime": "2009-10-24",
            "endTime": "2010-11-12",
            "instrumentCode": "CHBR/24Oct2009"
        },
        {
            "network": "BI",
            "station": "CHBR",
            "channel": "BH",
            "latitude": 25.5955,
            "longitude": 60.4821,
            "elevation": 125.0,
            "startTime": "2010-11-12",
            "endTime": "2016-07-27",
            "instrumentCode": "CHBR/12Nov2010"
        },
        {
            "network": "BI",
            "station": "CHBR",
            "channel": "BH",
            "latitude": 25.5955,
            "longitude": 60.4821,
            "elevation": 125.0,
            "startTime": "2016-07-27",
            "endTime": "2018-09-27",
            "instrumentCode": "CHBR/27Jul2016"
        },
        {
            "network": "BI",
            "station": "CHBR",
            "channel": "BH",
            "latitude": 25.5955,
            "longitude": 60.4821,
            "elevation": 125.0,
            "startTime": "2018-09-27",
            "endTime": "2020-01-28",
            "instrumentCode": "CHBR/27Sep2018"
        },
        {
            "network": "BI",
            "station": "CHBR",
            "channel": "BH",
            "latitude": 25.5955,
            "longitude": 60.4821,
            "elevation": 125.0,
            "startTime": "2020-01-28",
            "endTime": "2100-01-01",
            "instrumentCode": "CHBR/28Jan2020"
        },
        {
            "network": "BI",
            "station": "CHTH",
            "channel": "BH",
            "latitude": 35.9078,
            "longitude": 51.1259,
            "elevation": 2350.0,
            "startTime": "2005-10-03",
            "endTime": "2007-10-15",
            "instrumentCode": "CHTH/03Oct2005"
        },
        {
            "network": "BI",
            "station": "CHTH",
            "channel": "BH",
            "latitude": 35.9078,
            "longitude": 51.1259,
            "elevation": 2350.0,
            "startTime": "2007-10-15",
            "endTime": "2011-08-08",
            "instrumentCode": "CHTH/15Oct2007"
        },
        {
            "network": "BI",
            "station": "CHTH",
            "channel": "BH",
            "latitude": 35.9078,
            "longitude": 51.1259,
            "elevation": 2350.0,
            "startTime": "2011-08-08",
            "endTime": "2100-01-01",
            "instrumentCode": "CHTH/08Aug2011"
        },
        {
            "network": "BI",
            "station": "DAMV",
            "channel": "BH",
            "latitude": 35.6303,
            "longitude": 51.971,
            "elevation": 2300.0,
            "startTime": "2004-06-02",
            "endTime": "2015-10-28",
            "instrumentCode": "DAMV/02Jun2004"
        },
        {
            "network": "BI",
            "station": "DAMV",
            "channel": "BH",
            "latitude": 35.6303,
            "longitude": 51.971,
            "elevation": 2300.0,
            "startTime": "2015-10-28",
            "endTime": "2020-09-26",
            "instrumentCode": "DAMV/28Oct2015"
        },
        {
            "network": "BI",
            "station": "DAMV",
            "channel": "BH",
            "latitude": 35.6303,
            "longitude": 51.971,
            "elevation": 2300.0,
            "startTime": "2020-09-26",
            "endTime": "2022-02-12",
            "instrumentCode": "DAMV/26Sep2020"
        },
        {
            "network": "BI",
            "station": "DAMV",
            "channel": "BH",
            "latitude": 35.6303,
            "longitude": 51.971,
            "elevation": 2300.0,
            "startTime": "2022-02-12",
            "endTime": "2100-01-01",
            "instrumentCode": "DAMV/12Feb2022"
        },
        {
            "network": "BI",
            "station": "GHIR",
            "channel": "BH",
            "latitude": 28.2856,
            "longitude": 52.9867,
            "elevation": 1200.0,
            "startTime": "2004-05-12",
            "endTime": "2015-12-01",
            "instrumentCode": "GHIR/12May2004"
        },
        {
            "network": "BI",
            "station": "GHIR",
            "channel": "BH",
            "latitude": 28.2856,
            "longitude": 52.9867,
            "elevation": 1200.0,
            "startTime": "2015-12-01",
            "endTime": "2017-11-01",
            "instrumentCode": "GHIR/01Dec2015"
        },
        {
            "network": "BI",
            "station": "GHIR",
            "channel": "BH",
            "latitude": 28.2856,
            "longitude": 52.9867,
            "elevation": 1200.0,
            "startTime": "2017-11-01",
            "endTime": "2018-09-24",
            "instrumentCode": "GHIR/01Nov2017"
        },
        {
            "network": "BI",
            "station": "GHIR",
            "channel": "BH",
            "latitude": 28.2856,
            "longitude": 52.9867,
            "elevation": 1200.0,
            "startTime": "2018-09-24",
            "endTime": "2019-03-04",
            "instrumentCode": "GHIR/24Sep2018"
        },
        {
            "network": "BI",
            "station": "GHIR",
            "channel": "HH",
            "latitude": 28.2856,
            "longitude": 52.9867,
            "elevation": 1200.0,
            "startTime": "2019-03-04",
            "endTime": "2100-01-01",
            "instrumentCode": "GHIR/04Mar2019"
        },
        {
            "network": "BI",
            "station": "GHVR",
            "channel": "BH",
            "latitude": 34.48,
            "longitude": 51.2453,
            "elevation": 927.0,
            "startTime": "2007-02-15",
            "endTime": "2100-01-01",
            "instrumentCode": "GHVR/15Feb2007"
        },
        {
            "network": "BI",
            "station": "GIDE",
            "channel": "BH",
            "latitude": 36.923,
            "longitude": 49.8258,
            "elevation": 1836.0,
            "startTime": "2016-05-23",
            "endTime": "2018-04-25",
            "instrumentCode": "GIDE/23May2016"
        },
        {
            "network": "BI",
            "station": "GIDE",
            "channel": "BH",
            "latitude": 36.923,
            "longitude": 49.8258,
            "elevation": 1836.0,
            "startTime": "2018-04-25",
            "endTime": "2019-11-24",
            "instrumentCode": "GIDE/25Apr2018"
        },
        {
            "network": "BI",
            "station": "GIDE",
            "channel": "BH",
            "latitude": 36.923,
            "longitude": 49.8258,
            "elevation": 1836.0,
            "startTime": "2019-11-24",
            "endTime": "2100-01-01",
            "instrumentCode": "GIDE/24Nov2019"
        },
        {
            "network": "BI",
            "station": "GRMI",
            "channel": "BH",
            "latitude": 38.8081,
            "longitude": 47.8938,
            "elevation": 1300.0,
            "startTime": "2004-09-10",
            "endTime": "2007-09-29",
            "instrumentCode": "GRMI/10Sep2004"
        },
        {
            "network": "BI",
            "station": "GRMI",
            "channel": "BH",
            "latitude": 38.8081,
            "longitude": 47.8938,
            "elevation": 1300.0,
            "startTime": "2007-09-29",
            "endTime": "2008-01-01",
            "instrumentCode": "GRMI/29Sep2007"
        },
        {
            "network": "BI",
            "station": "GRMI",
            "channel": "BH",
            "latitude": 38.8081,
            "longitude": 47.8938,
            "elevation": 1300.0,
            "startTime": "2008-01-01",
            "endTime": "2017-05-11",
            "instrumentCode": "GRMI/01Jan2008"
        },
        {
            "network": "BI",
            "station": "GRMI",
            "channel": "BH",
            "latitude": 38.8081,
            "longitude": 47.8938,
            "elevation": 1300.0,
            "startTime": "2017-05-11",
            "endTime": "2100-01-01",
            "instrumentCode": "GRMI/11May2017"
        },
        {
            "network": "BI",
            "station": "GTMR",
            "channel": "BH",
            "latitude": 32.4705,
            "longitude": 49.1123,
            "elevation": 482.0,
            "startTime": "2018-05-16",
            "endTime": "2100-01-01",
            "instrumentCode": "GTMR/16May2018"
        },
        {
            "network": "BI",
            "station": "ILBA",
            "channel": "BH",
            "latitude": 33.6245,
            "longitude": 46.2075,
            "elevation": 805.0,
            "startTime": "2016-10-19",
            "endTime": "2017-03-07",
            "instrumentCode": "ILBA/19Oct2016"
        },
        {
            "network": "BI",
            "station": "ILBA",
            "channel": "BH",
            "latitude": 33.6245,
            "longitude": 46.2075,
            "elevation": 805.0,
            "startTime": "2017-03-07",
            "endTime": "2017-05-24",
            "instrumentCode": "ILBA/07Mar2017"
        },
        {
            "network": "BI",
            "station": "ILBA",
            "channel": "BH",
            "latitude": 33.6245,
            "longitude": 46.2075,
            "elevation": 805.0,
            "startTime": "2017-05-24",
            "endTime": "2018-01-23",
            "instrumentCode": "ILBA/24May2017"
        },
        {
            "network": "BI",
            "station": "ILBA",
            "channel": "BH",
            "latitude": 33.6245,
            "longitude": 46.2075,
            "elevation": 805.0,
            "startTime": "2018-01-23",
            "endTime": "2019-04-28",
            "instrumentCode": "ILBA/23Jan2018"
        },
        {
            "network": "BI",
            "station": "ILBA",
            "channel": "BH",
            "latitude": 33.6245,
            "longitude": 46.2075,
            "elevation": 805.0,
            "startTime": "2019-04-28",
            "endTime": "2100-01-01",
            "instrumentCode": "ILBA/28Apr2019"
        },
        {
            "network": "BI",
            "station": "JSSH",
            "channel": "BH",
            "latitude": 25.9093,
            "longitude": 57.3872,
            "elevation": 31.0,
            "startTime": "2020-09-18",
            "endTime": "2022-05-06",
            "instrumentCode": "JSSH/18Sep2020"
        },
        {
            "network": "BI",
            "station": "JSSH",
            "channel": "HH",
            "latitude": 25.9093,
            "longitude": 57.3872,
            "elevation": 31.0,
            "startTime": "2022-05-07",
            "endTime": "2100-01-01",
            "instrumentCode": "JSSH/07Apr2022"
        },
        {
            "network": "BI",
            "station": "KAGH",
            "channel": "BH",
            "latitude": 36.9381,
            "longitude": 59.9582,
            "elevation": 1424.0,
            "startTime": "2020-05-18",
            "endTime": "2100-01-01",
            "instrumentCode": "KAGH/18May2020"
        },
        {
            "network": "BI",
            "station": "KHMZ",
            "channel": "BH",
            "latitude": 33.7396,
            "longitude": 49.9642,
            "elevation": 1985.0,
            "startTime": "2009-01-12",
            "endTime": "2016-08-16",
            "instrumentCode": "KHMZ/12Jan2009"
        },
        {
            "network": "BI",
            "station": "KHMZ",
            "channel": "BH",
            "latitude": 33.7396,
            "longitude": 49.9642,
            "elevation": 1985.0,
            "startTime": "2016-08-16",
            "endTime": "2017-08-12",
            "instrumentCode": "KHMZ/16Aug2016"
        },
        {
            "network": "BI",
            "station": "KHMZ",
            "channel": "BH",
            "latitude": 33.7396,
            "longitude": 49.9642,
            "elevation": 1985.0,
            "startTime": "2017-08-12",
            "endTime": "2100-01-01",
            "instrumentCode": "KHMZ/12Aug2017"
        },
        {
            "network": "BI",
            "station": "KHRK",
            "channel": "BH",
            "latitude": 29.2543,
            "longitude": 50.3133,
            "elevation": 36.0,
            "startTime": "2021-02-10",
            "endTime": "2021-10-14",
            "instrumentCode": "KHRK/10Feb2021"
        },
        {
            "network": "BI",
            "station": "KHRK",
            "channel": "BH",
            "latitude": 29.2543,
            "longitude": 50.3133,
            "elevation": 36.0,
            "startTime": "2021-10-14",
            "endTime": "2100-01-01",
            "instrumentCode": "KHRK/14Oct2021"
        },
        {
            "network": "BI",
            "station": "KRBR",
            "channel": "BH",
            "latitude": 29.9824,
            "longitude": 56.7604,
            "elevation": 2576.0,
            "startTime": "2004-08-23",
            "endTime": "2007-07-03",
            "instrumentCode": "KRBR/23Aug2004"
        },
        {
            "network": "BI",
            "station": "KRBR",
            "channel": "BH",
            "latitude": 29.9824,
            "longitude": 56.7604,
            "elevation": 2576.0,
            "startTime": "2007-07-03",
            "endTime": "2012-04-16",
            "instrumentCode": "KRBR/03Jul2007"
        },
        {
            "network": "BI",
            "station": "KRBR",
            "channel": "BH",
            "latitude": 29.9824,
            "longitude": 56.7604,
            "elevation": 2576.0,
            "startTime": "2012-04-16",
            "endTime": "2100-01-01",
            "instrumentCode": "KRBR/16Apr2012"
        },
        {
            "network": "BI",
            "station": "MAKU",
            "channel": "BH",
            "latitude": 39.3549,
            "longitude": 44.6835,
            "elevation": 1730.0,
            "startTime": "2004-04-14",
            "endTime": "2007-11-11",
            "instrumentCode": "MAKU/14Apr2004"
        },
        {
            "network": "BI",
            "station": "MAKU",
            "channel": "BH",
            "latitude": 39.3549,
            "longitude": 44.6835,
            "elevation": 1730.0,
            "startTime": "2007-11-11",
            "endTime": "2017-05-12",
            "instrumentCode": "MAKU/11Nov2007"
        },
        {
            "network": "BI",
            "station": "MAKU",
            "channel": "BH",
            "latitude": 39.3549,
            "longitude": 44.6835,
            "elevation": 1730.0,
            "startTime": "2017-05-12",
            "endTime": "2021-02-03",
            "instrumentCode": "MAKU/12May2017"
        },
        {
            "network": "BI",
            "station": "MAKU",
            "channel": "BH",
            "latitude": 39.3549,
            "longitude": 44.6835,
            "elevation": 1730.0,
            "startTime": "2021-02-03",
            "endTime": "2100-01-01",
            "instrumentCode": "MAKU/03Feb2021"
        },
        {
            "network": "BI",
            "station": "MRVT",
            "channel": "BH",
            "latitude": 37.6593,
            "longitude": 56.0892,
            "elevation": 870.0,
            "startTime": "2006-04-11",
            "endTime": "2006-06-07",
            "instrumentCode": "MRVT/11Apr2006"
        },
        {
            "network": "BI",
            "station": "MRVT",
            "channel": "BH",
            "latitude": 37.6593,
            "longitude": 56.0892,
            "elevation": 870.0,
            "startTime": "2006-06-07",
            "endTime": "2010-04-28",
            "instrumentCode": "MRVT/07Jun2006"
        },
        {
            "network": "BI",
            "station": "MRVT",
            "channel": "BH",
            "latitude": 37.6593,
            "longitude": 56.0892,
            "elevation": 870.0,
            "startTime": "2010-04-28",
            "endTime": "2100-01-01",
            "instrumentCode": "MRVT/28Apr2010"
        },
        {
            "network": "BI",
            "station": "NASN",
            "channel": "BH",
            "latitude": 32.7992,
            "longitude": 52.8083,
            "elevation": 2379.0,
            "startTime": "2004-04-12",
            "endTime": "2012-04-23",
            "instrumentCode": "NASN/12Apr2004"
        },
        {
            "network": "BI",
            "station": "NASN",
            "channel": "BH",
            "latitude": 32.7992,
            "longitude": 52.8083,
            "elevation": 2379.0,
            "startTime": "2012-04-23",
            "endTime": "2019-08-25",
            "instrumentCode": "NASN/23Apr2012"
        },
        {
            "network": "BI",
            "station": "NASN",
            "channel": "BH",
            "latitude": 32.7992,
            "longitude": 52.8083,
            "elevation": 2379.0,
            "startTime": "2019-08-25",
            "endTime": "2100-01-01",
            "instrumentCode": "NASN/25Aug2019"
        },
        {
            "network": "BI",
            "station": "SHGR",
            "channel": "BH",
            "latitude": 32.1084,
            "longitude": 48.8014,
            "elevation": 150.0,
            "startTime": "2002-10-11",
            "endTime": "2011-02-11",
            "instrumentCode": "SHGR/11Oct2002"
        },
        {
            "network": "BI",
            "station": "SHGR",
            "channel": "BH",
            "latitude": 32.1084,
            "longitude": 48.8014,
            "elevation": 150.0,
            "startTime": "2011-02-11",
            "endTime": "2100-01-01",
            "instrumentCode": "SHGR/11Feb2011"
        },
        {
            "network": "BI",
            "station": "SHRO",
            "channel": "BH",
            "latitude": 36.0085,
            "longitude": 56.0129,
            "elevation": 1264.0,
            "startTime": "2009-02-04",
            "endTime": "2015-02-23",
            "instrumentCode": "SHRO/04Feb2009"
        },
        {
            "network": "BI",
            "station": "SHRO",
            "channel": "BH",
            "latitude": 36.0085,
            "longitude": 56.0129,
            "elevation": 1264.0,
            "startTime": "2015-02-23",
            "endTime": "2021-09-22",
            "instrumentCode": "SHRO/23Feb2015"
        },
        {
            "network": "BI",
            "station": "SHRO",
            "channel": "BH",
            "latitude": 36.0085,
            "longitude": 56.0129,
            "elevation": 1264.0,
            "startTime": "2021-09-22",
            "endTime": "2100-01-01",
            "instrumentCode": "SHRO/22Sep2021"
        },
        {
            "network": "BI",
            "station": "SHRT",
            "channel": "BH",
            "latitude": 33.6462,
            "longitude": 60.291,
            "elevation": 837.0,
            "startTime": "2008-09-11",
            "endTime": "2100-01-01",
            "instrumentCode": "SHRT/11Sep2008"
        },
        {
            "network": "BI",
            "station": "SNGE",
            "channel": "BH",
            "latitude": 35.0925,
            "longitude": 47.347,
            "elevation": 1940.0,
            "startTime": "2004-05-26",
            "endTime": "2005-01-15",
            "instrumentCode": "SNGE/26May2004"
        },
        {
            "network": "BI",
            "station": "SNGE",
            "channel": "BH",
            "latitude": 35.0925,
            "longitude": 47.347,
            "elevation": 1940.0,
            "startTime": "2005-01-15",
            "endTime": "2005-07-26",
            "instrumentCode": "SNGE/15Jan2005"
        },
        {
            "network": "BI",
            "station": "SNGE",
            "channel": "BH",
            "latitude": 35.0925,
            "longitude": 47.347,
            "elevation": 1940.0,
            "startTime": "2005-07-26",
            "endTime": "2005-08-01",
            "instrumentCode": "SNGE/26Jul2005"
        },
        {
            "network": "BI",
            "station": "SNGE",
            "channel": "BH",
            "latitude": 35.0925,
            "longitude": 47.347,
            "elevation": 1940.0,
            "startTime": "2005-08-01",
            "endTime": "2006-08-03",
            "instrumentCode": "SNGE/01Aug2005"
        },
        {
            "network": "BI",
            "station": "SNGE",
            "channel": "BH",
            "latitude": 35.0925,
            "longitude": 47.347,
            "elevation": 1940.0,
            "startTime": "2006-08-03",
            "endTime": "2007-03-03",
            "instrumentCode": "SNGE/03Aug2006"
        },
        {
            "network": "BI",
            "station": "SNGE",
            "channel": "BH",
            "latitude": 35.0925,
            "longitude": 47.347,
            "elevation": 1940.0,
            "startTime": "2007-03-03",
            "endTime": "2013-12-29",
            "instrumentCode": "SNGE/03Mar2007"
        },
        {
            "network": "BI",
            "station": "SNGE",
            "channel": "BH",
            "latitude": 35.0925,
            "longitude": 47.347,
            "elevation": 1940.0,
            "startTime": "2013-12-29",
            "endTime": "2016-06-05",
            "instrumentCode": "SNGE/29Dec2013"
        },
        {
            "network": "BI",
            "station": "SNGE",
            "channel": "BH",
            "latitude": 35.0925,
            "longitude": 47.347,
            "elevation": 1940.0,
            "startTime": "2016-06-05",
            "endTime": "2018-07-19",
            "instrumentCode": "SNGE/05Jun2016"
        },
        {
            "network": "BI",
            "station": "SNGE",
            "channel": "BH",
            "latitude": 35.0925,
            "longitude": 47.347,
            "elevation": 1940.0,
            "startTime": "2018-07-19",
            "endTime": "2100-01-01",
            "instrumentCode": "SNGE/19Jul2018"
        },
        {
            "network": "BI",
            "station": "SRSL",
            "channel": "BH",
            "latitude": 36.2122,
            "longitude": 45.4339,
            "elevation": 1747.0,
            "startTime": "2018-01-21",
            "endTime": "2018-09-27",
            "instrumentCode": "SRSL/21Jan2018"
        },
        {
            "network": "BI",
            "station": "SRSL",
            "channel": "BH",
            "latitude": 36.2122,
            "longitude": 45.4339,
            "elevation": 1747.0,
            "startTime": "2018-09-27",
            "endTime": "2019-09-17",
            "instrumentCode": "SRSL/27Sep2018"
        },
        {
            "network": "BI",
            "station": "SRSL",
            "channel": "BH",
            "latitude": 36.2122,
            "longitude": 45.4339,
            "elevation": 1747.0,
            "startTime": "2019-09-17",
            "endTime": "2100-01-01",
            "instrumentCode": "SRSL/17Sep2019"
        },
        {
            "network": "BI",
            "station": "TABS",
            "channel": "BH",
            "latitude": 33.649,
            "longitude": 57.119,
            "elevation": 1106.0,
            "startTime": "2008-09-10",
            "endTime": "2100-01-01",
            "instrumentCode": "TABS/10Sep2008"
        },
        {
            "network": "BI",
            "station": "THKV",
            "channel": "BH",
            "latitude": 35.9157,
            "longitude": 50.8788,
            "elevation": 1795.0,
            "startTime": "2004-05-22",
            "endTime": "2005-11-08",
            "instrumentCode": "THKV/22May2004"
        },
        {
            "network": "BI",
            "station": "THKV",
            "channel": "BH",
            "latitude": 35.9157,
            "longitude": 50.8788,
            "elevation": 1795.0,
            "startTime": "2005-11-08",
            "endTime": "2008-01-05",
            "instrumentCode": "THKV/08Nov2005"
        },
        {
            "network": "BI",
            "station": "THKV",
            "channel": "BH",
            "latitude": 35.9157,
            "longitude": 50.8788,
            "elevation": 1795.0,
            "startTime": "2008-01-05",
            "endTime": "2010-06-16",
            "instrumentCode": "THKV/05Jan2008"
        },
        {
            "network": "BI",
            "station": "THKV",
            "channel": "BH",
            "latitude": 35.9157,
            "longitude": 50.8788,
            "elevation": 1795.0,
            "startTime": "2010-06-16",
            "endTime": "2013-03-05",
            "instrumentCode": "THKV/16Jun2010"
        },
        {
            "network": "BI",
            "station": "THKV",
            "channel": "BH",
            "latitude": 35.9157,
            "longitude": 50.8788,
            "elevation": 1795.0,
            "startTime": "2013-03-05",
            "endTime": "2016-05-01",
            "instrumentCode": "THKV/05Mar2013"
        },
        {
            "network": "BI",
            "station": "THKV",
            "channel": "BH",
            "latitude": 35.9157,
            "longitude": 50.8788,
            "elevation": 1795.0,
            "startTime": "2016-05-01",
            "endTime": "2017-01-02",
            "instrumentCode": "THKV/01May2016"
        },
        {
            "network": "BI",
            "station": "THKV",
            "channel": "BH",
            "latitude": 35.9157,
            "longitude": 50.8788,
            "elevation": 1795.0,
            "startTime": "2017-01-02",
            "endTime": "2100-01-01",
            "instrumentCode": "THKV/02Jan2017"
        },
        {
            "network": "BI",
            "station": "YZKH",
            "channel": "BH",
            "latitude": 32.3901,
            "longitude": 54.5916,
            "elevation": 2226.0,
            "startTime": "2012-07-10",
            "endTime": "2100-01-01",
            "instrumentCode": "YZKH/10Jul2012"
        },
        {
            "network": "BI",
            "station": "ZHSF",
            "channel": "BH",
            "latitude": 29.6108,
            "longitude": 60.7668,
            "elevation": 1575.0,
            "startTime": "2004-05-17",
            "endTime": "2007-03-08",
            "instrumentCode": "ZHSF/17May2004"
        },
        {
            "network": "BI",
            "station": "ZHSF",
            "channel": "BH",
            "latitude": 29.6108,
            "longitude": 60.7668,
            "elevation": 1575.0,
            "startTime": "2007-03-08",
            "endTime": "2100-01-01",
            "instrumentCode": "ZHSF/08Mar2007"
        },
        {
            "network": "BI",
            "station": "ZNJK",
            "channel": "BH",
            "latitude": 36.6709,
            "longitude": 48.685,
            "elevation": 2200.0,
            "startTime": "2007-09-11",
            "endTime": "2008-04-12",
            "instrumentCode": "ZNJK/11Sep2007"
        },
        {
            "network": "BI",
            "station": "ZNJK",
            "channel": "BH",
            "latitude": 36.6709,
            "longitude": 48.685,
            "elevation": 2200.0,
            "startTime": "2008-04-12",
            "endTime": "2008-07-14",
            "instrumentCode": "ZNJK/12Apr2008"
        },
        {
            "network": "BI",
            "station": "ZNJK",
            "channel": "BH",
            "latitude": 36.6709,
            "longitude": 48.685,
            "elevation": 2200.0,
            "startTime": "2008-07-14",
            "endTime": "2021-01-05",
            "instrumentCode": "ZNJK/14Jul2008"
        },
        {
            "network": "BI",
            "station": "ZNJK",
            "channel": "BH",
            "latitude": 36.6709,
            "longitude": 48.685,
            "elevation": 2200.0,
            "startTime": "2021-01-05",
            "endTime": "2100-01-01",
            "instrumentCode": "ZNJK/05Jan2021"
        }
    ]
}
