{
	"stations": [
		{
			"network": "FN",
			"station": "FN01",
			"channel": "BH",
			"latitude": 27.4513,
			"longitude": 56.2940,
			"elevation": 179,
			"startTime": "2021,001",
			"endTime": "2100,001",
			"instrumentCode": "parsian"
		},
		{
			"network": "FN",
			"station": "FN04",
			"channel": "BH",
			"latitude": 27.7081,
			"longitude": 56.1820,
			"elevation": 639,
			"startTime": "2021,001",
			"endTime": "2100,001",
			"instrumentCode": "parsian"
		},
		{
			"network": "FN",
			"station": "FN05",
			"channel": "BH",
			"latitude": 27.4388,
			"longitude": 56.0322,
			"elevation": 335,
			"startTime": "2021,001",
			"endTime": "2100,001",
			"instrumentCode": "parsian"
		},
		{
			"network": "FN",
			"station": "FN07",
			"channel": "BH",
			"latitude": 27.5559,
			"longitude": 56.0774,
			"elevation": 300,
			"startTime": "2021,001",
			"endTime": "2100,001",
			"instrumentCode": "parsian"
		},
		{
			"network": "FN",
			"station": "FN08",
			"channel": "BH",
			"latitude": 27.5921,
			"longitude": 56.3104,
			"elevation": 457,
			"startTime": "2021,001",
			"endTime": "2100,001",
			"instrumentCode": "parsian"
		},
		{
			"network": "FN",
			"station": "FN10",
			"channel": "BH",
			"latitude": 27.7582,
			"longitude": 56.3324,
			"elevation": 631,
			"startTime": "2021,001",
			"endTime": "2100,001",
			"instrumentCode": "parsian"
		},
		{
			"network": "FN",
			"station": "FN15",
			"channel": "BH",
			"latitude": 27.5430,
			"longitude": 56.3873,
			"elevation": 320,
			"startTime": "2021,001",
			"endTime": "2100,001",
			"instrumentCode": "parsian"
		},
		{
			"network": "KH",
			"station": "BAND",
			"channel": "BH",
			"latitude": 26.660,
			"longitude": 55.047,
			"elevation": 0,
			"startTime": "2022,001",
			"endTime": "2100,001",
			"instrumentCode": "parsian"
		},
		{
			"network": "KH",
			"station": "BERK",
			"channel": "BH",
			"latitude": 26.760,
			"longitude": 55.215,
			"elevation": 0,
			"startTime": "2022,001",
			"endTime": "2100,001",
			"instrumentCode": "parsian"
		},
		{
			"network": "KH",
			"station": "DEJG",
			"channel": "BH",
			"latitude": 26.890,
			"longitude": 55.275,
			"elevation": 0,
			"startTime": "2022,001",
			"endTime": "2100,001",
			"instrumentCode": "6180"
		},
		{
			"network": "KH",
			"station": "DLAB",
			"channel": "BH",
			"latitude": 26.680,
			"longitude": 55.465,
			"elevation": 0,
			"startTime": "2022,001",
			"endTime": "2100,001",
			"instrumentCode": "6268"
		},
		{
			"network": "KH",
			"station": "DORK",
			"channel": "BH",
			"latitude": 26.640,
			"longitude": 55.392,
			"elevation": 0,
			"startTime": "2022,001",
			"endTime": "2100,001",
			"instrumentCode": "6255"
		},
		{
			"network": "KH",
			"station": "GORA",
			"channel": "BH",
			"latitude": 26.720,
			"longitude": 55.620,
			"elevation": 0,
			"startTime": "2022,001",
			"endTime": "2100,001",
			"instrumentCode": "parsian"
		},
		{
			"network": "KH",
			"station": "HOME",
			"channel": "BH",
			"latitude": 26.700,
			"longitude": 55.085,
			"elevation": 0,
			"startTime": "2022,001",
			"endTime": "2100,001",
			"instrumentCode": "parsian"
		},
		{
			"network": "KH",
			"station": "KONK",
			"channel": "BH",
			"latitude": 26.920,
			"longitude": 55.390,
			"elevation": 0,
			"startTime": "2022,001",
			"endTime": "2100,001",
			"instrumentCode": "parsian"
		},
		{
			"network": "KH",
			"station": "KOSH",
			"channel": "BH",
			"latitude": 26.900,
			"longitude": 55.440,
			"elevation": 0,
			"startTime": "2022,001",
			"endTime": "2100,001",
			"instrumentCode": "parsian"
		},
		{
			"network": "KH",
			"station": "LASH",
			"channel": "BH",
			"latitude": 26.940,
			"longitude": 55.560,
			"elevation": 0,
			"startTime": "2022,001",
			"endTime": "2100,001",
			"instrumentCode": "parsian"
		},
		{
			"network": "KH",
			"station": "MTAB",
			"channel": "BH",
			"latitude": 26.790,
			"longitude": 55.357,
			"elevation": 0,
			"startTime": "2022,001",
			"endTime": "2100,001",
			"instrumentCode": "parsian"
		},
		{
			"network": "KH",
			"station": "SAED",
			"channel": "BH",
			"latitude": 26.650,
			"longitude": 55.285,
			"elevation": 0,
			"startTime": "2022,001",
			"endTime": "2100,001",
			"instrumentCode": "6252"
		},
		{
			"network": "KH",
			"station": "ZIAR",
			"channel": "BH",
			"latitude": 26.720,
			"longitude": 55.000,
			"elevation": 0,
			"startTime": "2022,001",
			"endTime": "2100,001",
			"instrumentCode": "6253"
		},
		{
			"network": "KI",
			"station": "BAST",
			"channel": "BH",
			"latitude": 26.5144,
			"longitude": 54.6511,
			"elevation": 0,
			"startTime": "2022,001",
			"endTime": "2100,001",
			"instrumentCode": "parsian"
		},
		{
			"network": "KI",
			"station": "BAVD",
			"channel": "BH",
			"latitude": 26.7750,
			"longitude": 54.3641,
			"elevation": 0,
			"startTime": "2022,001",
			"endTime": "2100,001",
			"instrumentCode": "parsian"
		},
		{
			"network": "KI",
			"station": "CHAH",
			"channel": "BH",
			"latitude": 26.7427,
			"longitude": 54.5562,
			"elevation": 0,
			"startTime": "2022,001",
			"endTime": "2100,001",
			"instrumentCode": "parsian"
		},
		{
			"network": "KI",
			"station": "CHRK",
			"channel": "BH",
			"latitude": 26.7364,
			"longitude": 54.2767,
			"elevation": 0,
			"startTime": "2022,001",
			"endTime": "2100,001",
			"instrumentCode": "parsian"
		},
		{
			"network": "KI",
			"station": "DEHN",
			"channel": "BH",
			"latitude": 26.8383,
			"longitude": 54.1455,
			"elevation": 0,
			"startTime": "2022,001",
			"endTime": "2100,001",
			"instrumentCode": "parsian"
		},
		{
			"network": "KI",
			"station": "DIVA",
			"channel": "BH",
			"latitude": 26.5821,
			"longitude": 54.5825,
			"elevation": 0,
			"startTime": "2022,001",
			"endTime": "2100,001",
			"instrumentCode": "parsian"
		},
		{
			"network": "KI",
			"station": "ERMK",
			"channel": "BH",
			"latitude": 26.8298,
			"longitude": 54.4505,
			"elevation": 0,
			"startTime": "2022,001",
			"endTime": "2100,001",
			"instrumentCode": "parsian"
		},
		{
			"network": "KI",
			"station": "GARZ",
			"channel": "BH",
			"latitude": 26.7443,
			"longitude": 53.9628,
			"elevation": 0,
			"startTime": "2022,001",
			"endTime": "2100,001",
			"instrumentCode": "parsian"
		},
		{
			"network": "KI",
			"station": "HOSS",
			"channel": "BH",
			"latitude": 26.6529,
			"longitude": 54.3661,
			"elevation": 0,
			"startTime": "2022,001",
			"endTime": "2100,001",
			"instrumentCode": "parsian"
		},
		{
			"network": "KI",
			"station": "KAND",
			"channel": "BH",
			"latitude": 26.7530,
			"longitude": 54.4553,
			"elevation": 0,
			"startTime": "2022,001",
			"endTime": "2100,001",
			"instrumentCode": "parsian"
		},
		{
			"network": "KI",
			"station": "KNAR",
			"channel": "BH",
			"latitude": 26.8359,
			"longitude": 54.2255,
			"elevation": 0,
			"startTime": "2022,001",
			"endTime": "2100,001",
			"instrumentCode": "parsian"
		},
		{
			"network": "KI",
			"station": "KSH1",
			"channel": "BH",
			"latitude": 26.5693,
			"longitude": 53.9515,
			"elevation": 0,
			"startTime": "2022,001",
			"endTime": "2100,001",
			"instrumentCode": "parsian"
		},
		{
			"network": "KI",
			"station": "KSH2",
			"channel": "BH",
			"latitude": 26.5057,
			"longitude": 53.9516,
			"elevation": 0,
			"startTime": "2022,001",
			"endTime": "2100,001",
			"instrumentCode": "parsian"
		},
		{
			"network": "KI",
			"station": "MAGH",
			"channel": "BH",
			"latitude": 26.6053,
			"longitude": 54.5091,
			"elevation": 0,
			"startTime": "2022,001",
			"endTime": "2100,001",
			"instrumentCode": "parsian"
		},
		{
			"network": "KI",
			"station": "MRGH",
			"channel": "BH",
			"latitude": 26.8603,
			"longitude": 54.3285,
			"elevation": 0,
			"startTime": "2022,001",
			"endTime": "2100,001",
			"instrumentCode": "parsian"
		},
		{
			"network": "KI",
			"station": "TAHO",
			"channel": "BH",
			"latitude": 26.7082,
			"longitude": 54.2044,
			"elevation": 0,
			"startTime": "2022,001",
			"endTime": "2100,001",
			"instrumentCode": "parsian"
		}		
	]
}